<?xml version="1.0"?>
<categories><category type="SR" name="Student &amp; Staff Resources"><subcategory type="prospective" name="Prospective Students">
			<location name="" lat="" lng="" tab1="" id="117" directions="no" description=""/>
			<location name="Financial+Aid+and+Scholarships" lng="-121.7476" lat="38.5415" tab1="http://financialaid.ucdavis.edu/" id="118" directions="no"/>
			<location name="Graduate+Studies+Admissions" id="767" lng="-121.749126" lat="38.537022" directions="no" tab1="http://gradstudies.ucdavis.edu"/>
			<location name="Registrar" lat="38.541419" lng="-121.747688" tab1="http://registrar.ucdavis.edu/" id="119" directions="no" description=""/>
			<location name="Undergraduate+Admissions" lng="-121.749448" lat="38.536972" tab1="http://admissions.ucdavis.edu/" id="120" directions="no"/>
			<location name="Welcome+Center" id="849" lng="-121.747356" lat="38.534300" directions="no" tab1="http://visit.ucdavis.edu/tourreg/directions.cfm"/>
		</subcategory><subcategory type="libraries" name="Libraries">
			<location name="Agricultural+%26+Resource+Economics+Library" lng="-121.747517" lat="38.543132" tab1="http://arelibrary.ucdavis.edu/" id="111"/>
			<location name="Carlson+Health+Sciences+Library" lng="-121.763429" lat="38.533489" tab1="http://www.lib.ucdavis.edu/dept/hsl/" id="112" directions="no"/>
			<location name="Law+Library" lng="-121.749730" lat="38.535978" tab1="http://www.law.ucdavis.edu/library/" id="113"/>
			<location name="Peter+J.+Shields+Library" lng="-121.749113" lat="38.539740" tab1="http://www.lib.ucdavis.edu/ul/libcoll/shields.php" id="114" description="The Peter J. Shields Library supports the teaching, research, and instruction needs for academic departments and programs in the Arts, Humanities, Social Sciences, Biological &amp; Agricultural Sciences, Computer Sciences, and Mathematics/Statistics.&lt;br/&gt;"/>
			<location name="Physical+Sciences+%26+Engineering+Library" lng="-121.750840" lat="38.537312" tab1="http://www.lib.ucdavis.edu/dept/pse/" id="115"/>
			<location name="Women%27s+Resources+%26+Research+Center+" lng="-121.748273" lat="38.541793" tab1="http://wrrc.ucdavis.edu/" id="116" directions="no"/>
		</subcategory><subcategory type="comp_lab" name="Student Computer Rooms"><location name="Hutchison+Hall+%28Room+78%29" id="828" lng="-121.753678" lat="38.540962" directions="no" tab1="http://clm.ucdavis.edu/rooms/available/" description=""/><location name="Olson+Hall+%28Room+15%29" lng="-121.747623" lat="38.54001" tab1="http://clm.ucdavis.edu/rooms/available/" id="125" description=""/><location name="Shields+Library+%28Room+91%29" lng="-121.749020" lat="38.539486" tab1="http://clm.ucdavis.edu/rooms/available/" id="127" description=""/><location name="Student+Community+Center+%28Room+2101%29" id="829" lng="-121.751646" lat="38.539457" directions="no" tab1="http://clm.ucdavis.edu/rooms/available/" description=""/><location name="Teaching+and+Learning+Complex+-+TLC+%28Room+2214%29" id="1031" lng="-121.753899" lat="38.538701" description="" tab1=""/><location name="Wellman+Hall+%28Room+102%29" id="852" lng="-121.751393" lat="38.541337" description="" tab1=""/></subcategory><subcategory type="stores" name="UC Davis Stores"><location name="Amazon+%40+UC+Davis" id="954" lng="-121.749380" lat="38.542848" description="" tab1=""/><location name="Campus+Store" id="822" lng="-121.749193" lat="38.542754" directions="no" tab1="http://ucdavisbookstore.com/home.aspx" description=""/><location name="Campus+Store+Annex" id="978" lng="-121.748962" lat="38.542325" description="" tab1="http://ucdavisbookstore.com/home.aspx"/><location name="Downtown+Store" id="816" lng="-121.740219" lat="38.543373" directions="yes" tab1="" description=""/><location name="The+Market" id="818" lng="-121.749233" lat="38.542435" directions="no" tab1="" description=""/><location name="Welcome+Center+Store" id="977" lng="-121.747242" lat="38.534379" description="" tab1=""/></subcategory><subcategory type="gender_inclusive" name="Gender+Inclusive+Restrooms"><location name="Activities+%26+Recreation+Center+%28ARC%29" id="883" lat="38.5429115" lng="-121.7596512" tab1="http://lgbtqia.ucdavis.edu/support/restroom/index.html" description="Room numbers 118, 119, 135"/><location name="Aggie+Stadium+East" id="862" lat="38.5365486" lng="-121.7619247" tab1="http://lgbtqia.ucdavis.edu/support/restroom/index.html" description="Room Number 1311"/><location name="Aggie+Stadium+North" id="863" lat="38.5374794" lng="-121.7624588" tab1="http://lgbtqia.ucdavis.edu/support/restroom/index.html" description="Room Number 1229"/><location name="Aggie+Stadium+West" id="927" lat="38.5365562" lng="-121.7635880" tab1="http://lgbtqia.ucdavis.edu/support/restroom/index.html" description="Room Number 1124"/><location name="Aquatic+Biology+%26+Environmental+Science+Bldg" id="1005" lng="-121.782744" lat="38.529221" description="Restroom 106" tab1="http://lgbtqia.ucdavis.edu/support/restroom/index.html"/><location name="Aquaculture+Facility+Shelter+%234" id="1006" lng="-121.783436" lat="38.529121" description="" tab1="http://lgbtqia.ucdavis.edu/support/restroom/index.html"/><location name="Arboretum+Rest+Room+%26+Storage+Shed" id="920" lat="38.5295258" lng="-121.7628708" tab1="http://lgbtqia.ucdavis.edu/support/restroom/index.html" description="Click on building name to access website"/><location name="Art+Building" id="898" lat="38.5389633" lng="-121.7485352" tab1="http://lgbtqia.ucdavis.edu/support/restroom/index.html" description="Room Numbers 137, 139"/><location name="Bainer+Hall" id="906" lat="38.5371971" lng="-121.7532501" tab1="http://lgbtqia.ucdavis.edu/support/restroom/index.html" description="Room Numbers 1226, 1335, 1329D"/><location name="Briggs+Hall" id="894" lat="38.5401726" lng="-121.7561340" tab1="http://lgbtqia.ucdavis.edu/support/restroom/index.html" description="Room Number 57"/><location name="Campbell+Hall" id="938" lat="38.5351067" lng="-121.7583923" tab1="http://lgbtqia.ucdavis.edu/support/restroom/index.html" description="Room Number 161"/><location name="Center+for+Companion+Animal+Health" id="931" lat="38.5309906" lng="-121.7632217" tab1="http://lgbtqia.ucdavis.edu/support/restroom/index.html" description="Room Numbers 144, 145, 207, 209, 241, 242"/><location name="Chemistry" id="922" lat="38.5382309" lng="-121.7511749" tab1="http://lgbtqia.ucdavis.edu/support/restroom/index.html" description="Room Number 106"/><location name="Cowell+Building" id="868" lat="38.5443535" lng="-121.7541351" tab1="http://lgbtqia.ucdavis.edu/support/restroom/index.html" description="Room Numbers 50, 52, 1091, 1213"/><location name="Cuarto+Dining+Commons" id="981" lng="-121.762547" lat="38.547982" description="Staff Only" tab1="http://lgbtqia.ucdavis.edu/support/restroom/index.html"/><location name="Currant+Hall" id="946" lat="38.5371933" lng="-121.7564774" tab1="http://lgbtqia.ucdavis.edu/support/restroom/index.html" description="Room Number 153"/><location name="Educational+Opportunity+Program+%28EOP%29" id="887" lat="38.5408440" lng="-121.7479172" tab1="http://lgbtqia.ucdavis.edu/support/restroom/index.html" description="Room Numbers 103, 105"/><location name="Emerson+Hall" id="942" lat="38.5476494" lng="-121.7636414" tab1="http://lgbtqia.ucdavis.edu/support/restroom/index.html" description="Click on building name to access website"/><location name="Everson+Hall" id="903" lat="38.5384941" lng="-121.7502365" tab1="http://lgbtqia.ucdavis.edu/support/restroom/index.html" description="Room Number 219"/><location name="Fire+%26+Police+Building" id="895" lat="38.5404358" lng="-121.7576752" tab1="http://lgbtqia.ucdavis.edu/support/restroom/index.html" description="Room Numbers 141, 143"/><location name="Genome+%26+Biomedical+Sciences+Facility" id="889" lat="38.5351181" lng="-121.7651825" tab1="http://lgbtqia.ucdavis.edu/support/restroom/index.html" description="Room Numbers 0507, 0509"/><location name="Gourley+Clinical+Teaching+Center" id="934" lat="38.5315819" lng="-121.7668839" tab1="http://lgbtqia.ucdavis.edu/support/restroom/index.html" description="Room Numbers 1206, 1208"/><location name="Hawthorn+Hall" id="949" lat="38.5372543" lng="-121.7581635" tab1="http://lgbtqia.ucdavis.edu/support/restroom/index.html" description="Room Number 151"/><location name="Hickey+Gym" id="877" lat="38.5438004" lng="-121.7486877" tab1="http://lgbtqia.ucdavis.edu/support/restroom/index.html" description="Room Numbers 266, 270"/><location name="Hunt+Hall" id="880" lat="38.5434875" lng="-121.7507095" tab1="http://lgbtqia.ucdavis.edu/support/restroom/index.html" description="Room Number 102"/><location name="Internal+Audit+Trailer" id="882" lat="38.5435410" lng="-121.7630615" tab1="http://lgbtqia.ucdavis.edu/support/restroom/index.html" description="Room Numbers 115, 117"/><location name="Kearney+Hall" id="923" lat="38.5358429" lng="-121.7583237" tab1="http://lgbtqia.ucdavis.edu/support/restroom/index.html" description="Room Numbers 170, 171"/><location name="Kerr+Hall" id="891" lat="38.5415611" lng="-121.7519989" tab1="http://lgbtqia.ucdavis.edu/support/restroom/index.html" description="Room Numbers 185, 287, 387, 587, 687"/><location name="King+Hall" id="941" lat="38.5359688" lng="-121.7497559" tab1="http://lgbtqia.ucdavis.edu/support/restroom/index.html" description="Room Numbers 41A, 42A, 1106, 2106, 2342A, 2342B"/><location name="Laben+Hall" id="924" lat="38.5354385" lng="-121.7583237" tab1="http://lgbtqia.ucdavis.edu/support/restroom/index.html" description="Room Numbers 176, 177"/><location name="Live+Oak+Hall" id="948" lat="38.5372772" lng="-121.7572861" tab1="http://lgbtqia.ucdavis.edu/support/restroom/index.html" description="Room Number 151"/><location name="Maddy+Lab" id="932" lat="38.5333519" lng="-121.7666779" tab1="http://lgbtqia.ucdavis.edu/support/restroom/index.html" description="Room Numbers 106B, 109A"/><location name="Mahogany+Hall" id="951" lat="38.5367126" lng="-121.7584076" tab1="http://lgbtqia.ucdavis.edu/support/restroom/index.html" description="Room Number 154"/><location name="Medical+Sciences+I+B+%28Carlson+Health+Sciences+Library%29" id="912" lat="38.5335007" lng="-121.7634888" tab1="http://lgbtqia.ucdavis.edu/support/restroom/index.html" description="Room Number 103, 104"/><location name="Memorial+Union" id="1007" lng="-121.749515" lat="38.542334" description="" tab1="http://lgbtqia.ucdavis.edu/support/restroom/index.html"/><location name="Meyer+Hall" id="910" lat="38.5347710" lng="-121.7545090" tab1="http://lgbtqia.ucdavis.edu/support/restroom/index.html" description="Room Number 1142"/><location name="Mondavi+Center+for+the+Performing+Arts+-+Administration" id="930" lat="38.5341301" lng="-121.7498703" tab1="http://lgbtqia.ucdavis.edu/support/restroom/index.html" description="Room Numbers 103, 104"/><location name="Mrak+Hall" id="988" lng="-121.749160" lat="38.537016" description="2nd floor lobby outside of room 0270" tab1="http://lgbtqia.ucdavis.edu/support/restroom/index.html"/><location name="North+Hall" id="890" lat="38.5417938" lng="-121.7482758" tab1="http://lgbtqia.ucdavis.edu/support/restroom/index.html" description="Room Number 110"/><location name="Pavilion+at+the+ARC" id="980" lng="-121.759747" lat="38.541802" description="Room Numbers 162, 165" tab1="http://lgbtqia.ucdavis.edu/support/restroom/index.html"/><location name="Peter+J.+Shields+Library" id="896" lat="38.5397415" lng="-121.7491150" tab1="http://lgbtqia.ucdavis.edu/support/restroom/index.html" description="Room Numbers 435, 491"/><location name="Physical+Sciences+%26+Engineering+Library" id="907" lat="38.5373116" lng="-121.7508392" tab1="http://lgbtqia.ucdavis.edu/support/restroom/index.html" description="Room Numbers 009, 011, 211"/><location name="Physics+Building" id="908" lat="38.5365982" lng="-121.7513046" tab1="http://lgbtqia.ucdavis.edu/support/restroom/index.html" description="Room Numbers 523, 524"/><location name="Pine+Hall" id="947" lat="38.5368118" lng="-121.7559738" tab1="http://lgbtqia.ucdavis.edu/support/restroom/index.html" description="Room Number 153"/><location name="Plant+%26+Environmental+Sciences" id="881" lat="38.5434265" lng="-121.7520294" tab1="http://lgbtqia.ucdavis.edu/support/restroom/index.html" description="Room Numbers 1244A, 1244B, 2244, 2246, 3244, 3246"/><location name="Potter+Hall" id="940" lat="38.5346642" lng="-121.7584457" tab1="http://lgbtqia.ucdavis.edu/support/restroom/index.html" description="Room Number 162"/><location name="Pritchard+VMTH" id="915" lat="38.5320816" lng="-121.7642593" tab1="http://lgbtqia.ucdavis.edu/support/restroom/index.html" description="Room Numbers 2027B, 2023A, 2160, 2161, 2196"/><location name="Regan+Campo" id="874" lat="38.5442047" lng="-121.7567444" tab1="http://lgbtqia.ucdavis.edu/support/restroom/index.html" description="Room Number 102A"/><location name="Regan+Central+Commons" id="878" lat="38.5439644" lng="-121.7562180" tab1="http://lgbtqia.ucdavis.edu/support/restroom/index.html" description="Room Numbers 103B, 103E"/><location name="Regan+Indio" id="875" lat="38.5441475" lng="-121.7549515" tab1="http://lgbtqia.ucdavis.edu/support/restroom/index.html" description="Room Number 102A"/><location name="Regan+Rienda" id="871" lat="38.5444641" lng="-121.7563477" tab1="http://lgbtqia.ucdavis.edu/support/restroom/index.html" description="Room Number 105"/><location name="Regan+Nova" id="872" lat="38.5444603" lng="-121.7558975" tab1="http://lgbtqia.ucdavis.edu/support/restroom/index.html" description="Room Number 205"/><location name="Regan+Sereno" id="879" lat="38.5439339" lng="-121.7554550" tab1="http://lgbtqia.ucdavis.edu/support/restroom/index.html" description="Room Number 101B"/><location name="Regan+Talara" id="876" lat="38.5442581" lng="-121.7555313" tab1="http://lgbtqia.ucdavis.edu/support/restroom/index.html" description="Room Number 105"/><location name="Robbins+Hall" id="886" lat="38.5405579" lng="-121.7518387" tab1="http://lgbtqia.ucdavis.edu/support/restroom/index.html" description="Room Number 178"/><location name="Robbins+Hall+Annex" id="893" lat="38.5410233" lng="-121.7522659" tab1="http://lgbtqia.ucdavis.edu/support/restroom/index.html" description="Room Number 14"/><location name="Robert+Mondavi+Institute+-+Sensory" id="935" lat="38.5327950" lng="-121.7516708" tab1="http://lgbtqia.ucdavis.edu/support/restroom/index.html" description="Room Number 2015"/><location name="Robert+Mondavi+Institute+-+South" id="937" lat="38.5326462" lng="-121.7505798" tab1="http://lgbtqia.ucdavis.edu/support/restroom/index.html" description="Room Number 1237"/><location name="Scrub+Oak+Hall" id="952" lat="38.5367355" lng="-121.7566376" tab1="http://lgbtqia.ucdavis.edu/support/restroom/index.html" description="Room Number 151"/><location name="Scrubs+Cafe" id="983" lng="-121.761798" lat="38.531843" description="" tab1="http://lgbtqia.ucdavis.edu/support/restroom/index.html"/><location name="Segundo+Bixby" id="873" lat="38.5444260" lng="-121.7574387" tab1="http://lgbtqia.ucdavis.edu/support/restroom/index.html" description="Room Numbers 118, 120, 129"/><location name="Segundo+Gilmore" id="870" lat="38.5445633" lng="-121.7587585" tab1="http://lgbtqia.ucdavis.edu/support/restroom/index.html" description="Room Numbers 118, 120"/><location name="Segundo+Malcolm" id="866" lat="38.5454369" lng="-121.7574310" tab1="http://lgbtqia.ucdavis.edu/support/restroom/index.html" description="Room Number 120"/><location name="Segundo+Miller" id="864" lat="38.5458565" lng="-121.7571945" tab1="http://lgbtqia.ucdavis.edu/support/restroom/index.html" description="Room Numbers 103, 105"/><location name="Segundo+North+-+Henry+Alder+Hall" id="865" lat="38.5458450" lng="-121.7583542" tab1="http://lgbtqia.ucdavis.edu/support/restroom/index.html" description="Room Numbers 108, 110"/><location name="Segundo+Ryerson" id="867" lat="38.5453949" lng="-121.7585373" tab1="http://lgbtqia.ucdavis.edu/support/restroom/index.html" description="Room Number 120"/><location name="Segundo+Market" id="945" lat="38.545061" lng="-121.758200" tab1="http://lgbtqia.ucdavis.edu/support/restroom/index.html" description="Click on building name to access website"/><location name="Sequoia+Hall" id="950" lat="38.5368385" lng="-121.7577667" tab1="http://lgbtqia.ucdavis.edu/support/restroom/index.html" description="Room Number 151"/><location name="Silo" id="902" lat="38.5387230" lng="-121.7530975" tab1="http://lgbtqia.ucdavis.edu/support/restroom/index.html" description="Room Numbers 123A, 123C"/><location name="Silo+South" id="982" lng="-121.752819" lat="38.538167" description="Staff Only" tab1=""/><location name="Social+Sciences+%26+Humanities" id="885" lat="38.5429382" lng="-121.7482147" tab1="http://lgbtqia.ucdavis.edu/support/restroom/index.html" description="Room Numbers 1222, 2254, 5210"/><location name="Sproul+Hall" id="897" lat="38.5399933" lng="-121.7470245" tab1="http://lgbtqia.ucdavis.edu/support/restroom/index.html" description="Room Numbers 119, 125, 319, 719"/><location name="Student+Affairs+Annex" id="869" lat="38.5447426" lng="-121.7545624" tab1="http://lgbtqia.ucdavis.edu/support/restroom/index.html" description="Room Numbers 19, 21"/><location name="Student+Community+Center" id="944" lat="38.5395279" lng="-121.7516403" tab1="http://lgbtqia.ucdavis.edu/support/restroom/index.html" description="Room Numbers 1006, 1007, 2006, 2007"/><location name="Student+Health+%26+Wellness+Center" id="936" lat="38.5426903" lng="-121.7615433" tab1="http://lgbtqia.ucdavis.edu/support/restroom/index.html" description="Room Numbers 1202, 1203, 2002"/><location name="Student+Housing" id="884" lat="38.5431366" lng="-121.7561111" tab1="http://lgbtqia.ucdavis.edu/support/restroom/index.html" description="Room Numbers 177, 179, 275, 277"/><location name="Surge+II" id="901" lat="38.5386810" lng="-121.7547379" tab1="http://lgbtqia.ucdavis.edu/support/restroom/index.html" description="Room Numbers 1402, 1406"/><location name="TB+172" id="953" lng="-121.756549" lat="38.537748" description="Click on building name to access website" tab1="http://lgbtqia.ucdavis.edu/support/restroom/index.html"/><location name="Tercero+Cottonwood" id="984" lng="-121.756315" lat="38.535901" description="Resident Only" tab1="http://lgbtqia.ucdavis.edu/support/restroom/index.html"/><location name="Tercero+Madrone" id="986" lng="-121.756669" lat="38.535416" description="Resident Only" tab1="http://lgbtqia.ucdavis.edu/support/restroom/index.html"/><location name="Tercero+Olive" id="985" lng="-121.757148" lat="38.535659" description="Resident Only" tab1="http://lgbtqia.ucdavis.edu/support/restroom/index.html"/><location name="Tercero+Redwood" id="987" lng="-121.755773" lat="38.535632" description="Resident Only" tab1="http://lgbtqia.ucdavis.edu/support/restroom/index.html"/><location name="Tercero+Services+Center" id="929" lat="38.5361938" lng="-121.7574997" tab1="http://lgbtqia.ucdavis.edu/support/restroom/index.html" description="Single stall on the second floor (available to dining patrons).  "/><location name="The+Grove+%28Surge+III%29" id="900" lat="38.5384789" lng="-121.7553864" tab1="http://lgbtqia.ucdavis.edu/support/restroom/index.html" description="Room Number 1303B"/><location name="Thoreau+Hall" id="921" lat="38.5468063" lng="-121.7639771" tab1="http://lgbtqia.ucdavis.edu/support/restroom/index.html" description="Click on building name to access website"/><location name="Thurman+Laboratory" id="933" lat="38.5327911" lng="-121.7664490" tab1="http://lgbtqia.ucdavis.edu/support/restroom/index.html" description="Room Numbers 1106, 1152, 1154, 1275"/><location name="Transportation+and+Parking+Services" id="926" lat="38.5408020" lng="-121.7585831" tab1="http://lgbtqia.ucdavis.edu/support/restroom/index.html" description="Room Numbers 1001, 1303, 1305"/><location name="Tupper+Hall" id="911" lat="38.5339775" lng="-121.7647781" tab1="http://lgbtqia.ucdavis.edu/support/restroom/index.html" description="Room Numbers 1062, 2042, 3047, 4046"/><location name="UC+Davis+Coffee+Center" id="928" lat="38.5322838" lng="-121.7584839" tab1="http://lgbtqia.ucdavis.edu/support/restroom/index.html" description="Room numbers 1114, 1116"/><location name="University+House+%26+Annex" id="892" lat="38.5410347" lng="-121.7474365" tab1="http://lgbtqia.ucdavis.edu/support/restroom/index.html" description="Room Numbers 107, 108"/><location name="Urban+Forestry+Building" id="909" lat="38.5360260" lng="-121.7467117" tab1="http://lgbtqia.ucdavis.edu/support/restroom/index.html" description="Room Numbers 1105A, 1105B"/><location name="Valley+Hall" id="914" lat="38.5328217" lng="-121.7637024" tab1="http://lgbtqia.ucdavis.edu/support/restroom/index.html" description="Room Number 2046"/><location name="Vet+Med+3A" id="913" lat="38.5326500" lng="-121.7653732" tab1="http://lgbtqia.ucdavis.edu/support/restroom/index.html" description="Room Numbers 1228, 1230, 1236"/><location name="Vet+Med+Equine+Athletic+Performance+Lab" id="918" lat="38.5310822" lng="-121.7658844" tab1="http://lgbtqia.ucdavis.edu/support/restroom/index.html" description="Room Numbers 106, 114"/><location name="Vet+Med+Laboratory+Facility+Large+Animal+Holding" id="919" lat="38.5310936" lng="-121.7666397" tab1="http://lgbtqia.ucdavis.edu/support/restroom/index.html" description="Click on building name to access website"/><location name="VMTH+Office+Annex" id="916" lat="38.5321655" lng="-121.7635040" tab1="http://lgbtqia.ucdavis.edu/support/restroom/index.html" description="Room Numbers 103, 105"/><location name="VMTH+Surgical" id="917" lat="38.5314178" lng="-121.7649841" tab1="http://lgbtqia.ucdavis.edu/support/restroom/index.html" description="Click on building name to access website"/><location name="Voorhies+Hall" id="1004" lng="-121.746955" lat="38.541216" description="First, Second and Third floor bathrooms" tab1="http://lgbtqia.ucdavis.edu/support/restroom/index.html"/><location name="Wall+Hall" id="939" lat="38.5348511" lng="-121.7575912" tab1="http://lgbtqia.ucdavis.edu/support/restroom/index.html" description="Click on building name to access website"/><location name="Wyatt+Pavilion" id="905" lat="38.5381203" lng="-121.7466965" tab1="http://lgbtqia.ucdavis.edu/support/restroom/index.html" description="Room Numbers 102, 106"/><location name="Wright+Hall" id="899" lat="38.5387459" lng="-121.7478943" tab1="http://lgbtqia.ucdavis.edu/support/restroom/index.html" description="Room Number 104"/><location name="Young+Hall" id="888" lat="38.5424004" lng="-121.7477112" tab1="http://lgbtqia.ucdavis.edu/support/restroom/index.html" description="Room Numbers 023, 227, 229"/></subcategory><subcategory name="Emergency Blue Lights" type="Emergency"><location name="" id="993" lng="-121.762822" lat="38.529541" description="" tab1=""/><location name="" id="994" lng="-121.758571" lat="38.531460" description="" tab1=""/><location name="" id="995" lng="-121.752643" lat="38.533943" description="" tab1=""/><location name="" id="996" lng="-121.750197" lat="38.534741" description="" tab1=""/><location name="" id="997" lng="-121.748500" lat="38.536763" description="" tab1=""/><location name="" id="998" lng="-121.743807" lat="38.540026" description="" tab1=""/><location name="" id="999" lng="-121.749364" lat="38.539043" description="" tab1=""/><location name="" id="1000" lng="-121.750233" lat="38.540127" description="" tab1=""/><location name="" id="1001" lng="-121.747281" lat="38.540847" description="" tab1=""/><location name="" id="1002" lng="-121.749809" lat="38.543218" description="" tab1=""/><location name="" id="1003" lng="-121.768888" lat="38.543743" description="" tab1=""/><location name="" id="1021" lng="-121.748619" lat="38.533708" description="" tab1=""/><location name="" id="1022" lng="-121.755356" lat="38.536044" description="" tab1=""/><location name="" id="1023" lng="-121.753395" lat="38.539174" description="" tab1=""/><location name="" id="1024" lng="-121.747799" lat="38.539311" description="" tab1=""/><location name="" id="1025" lng="-121.748432" lat="38.542096" description="" tab1=""/><location name="18" id="1026" lng="-121.747282" lat="38.543617" description="" tab1=""/><location name="" id="1027" lng="-121.752827" lat="38.542268" description="" tab1=""/><location name="" id="1028" lng="-121.756436" lat="38.542971" description="" tab1=""/><location name="" id="1029" lng="-121.754391" lat="38.538100" description="" tab1=""/><location name="" id="1030" lng="-121.747366" lat="38.538544" description="" tab1=""/></subcategory></category><category type="HD" name="Housing &amp; Dining"><subcategory type="resident" name="Resident Dining"><location name="Cuarto+Dining+Commons" lng="-121.763255" lat="38.547244" tab1="http://dining.ucdavis.edu/res-oxford.html" id="11" directions="yes" description=""/><location name="Cuarto+Market" id="856" lng="-121.763027" lat="38.547246" description="" tab1="http://dining.ucdavis.edu/res-oxford.html"/><location name="Latitude+Dining+Commons" id="1011" lng="-121.756434" lat="38.538064" description="" tab1="https://housing.ucdavis.edu/dining/latitude/"/><location name="Latitude+Market" id="1017" lng="-121.756279" lat="38.537920" description="" tab1="https://housing.ucdavis.edu/dining/latitude/"/><location name="Segundo+Market" lng="-121.758272" lat="38.545036" tab1="http://dining.ucdavis.edu/res-trudys.html" id="12" description=""/><location name="Segundo+Dining+Commons" lng="-121.758088" lat="38.543936" tab1="http://dining.ucdavis.edu/res-segundo.html" id="13" description=""/><location name="Tercero+Dining+Commons" lng="-121.757503" lat="38.536192" tab1="http://dining.ucdavis.edu/res-tercero.html" id="15" description=""/><location name="Tercero+Market" lng="-121.757106" lat="38.536102" tab1="http://dining.ucdavis.edu/res-trudys.html" id="16" description=""/></subcategory><subcategory type="retail" name="Retail Dining"><location name="Bio+Brew" lng="-121.754787" lat="38.539815" tab1="http://dining.ucdavis.edu/ret-bio.html" id="17" description=""/><location name="California+Coffee" id="1018" lng="-121.752912" lat="38.540882" description="" tab1=""/><location name="Coffee+House" lng="-121.749853" lat="38.542061" tab1="http://coffeehouse.ucdavis.edu/" id="18"/><location name="CoHo+South+Cafe" id="851" lng="-121.751609" lat="38.539527" description="" tab1="http://coffeehouse.ucdavis.edu/our-facilities/coho-south-cafe/"/><location name="Gunrock+Pub" lng="-121.753203" lat="38.538534" tab1="http://gunrockpub.ucdavis.edu/" id="19" description=""/><location name="Hyatt+Place+Gallery" lng="-121.746331" lat="38.535413" tab1="http://ucdavis.place.hyatt.com/hyatt/hotels/place/dining.jsp" id="20"/><location name="King+Hall+Coffee" id="1013" lng="-121.750222" lat="38.536234" description="" tab1="https://housing.ucdavis.edu/dining/coffee/king-hall-coffee/"/><location name="Latitude+Dining+Commons" id="1012" lng="-121.756434" lat="38.538064" description="" tab1="https://housing.ucdavis.edu/dining/latitude/"/><location name="Peet%27s+at+the+ARC" lng="-121.759624" lat="38.541812" tab1="http://dining.ucdavis.edu/ret-starbucks.html" id="22" description=""/><location name="Peet%27s+at+the+Silo" id="1014" lng="-121.752788" lat="38.538776" description="" tab1=""/><location name="Sage+Street+Market+Cafe" id="1019" lng="-121.771848" lat="38.541317" description="" tab1=""/><location name="Scrubs+Cafe" lng="-121.761797" lat="38.531837" tab1="http://dining.ucdavis.edu/ret-scrubs.html" id="21" description=""/><location name="Silo" id="792" lng="-121.753043" lat="38.538789" directions="no" tab1="http://campusunions.ucdavis.edu/?page_id=496" description=""/></subcategory><subcategory type="housing" name="Student Housing">
			<location name="Cuarto+Residence+Halls" lng="-121.763612" lat="38.547231" tab1="http://www.housing.ucdavis.edu/housing/" id="1" directions="yes" description=""/>
			<location name="Regan+Residence+Halls" lng="-121.755798" lat="38.544237" tab1="http://www.housing.ucdavis.edu/housing/" id="6" description=""/>
			<location name="Segundo+Residence+Halls" lng="-121.757908" lat="38.544920" tab1="http://www.housing.ucdavis.edu/housing/" id="8" directions="yes" description=""/>
			<location name="Solano+Park+Apartments" lng="-121.744" lat="38.5383" tab1="http://www.housing.ucdavis.edu/housing/" id="9" description=""/>
			<location name="Tercero+Residence+Halls" lng="-121.757141" lat="38.536121" tab1="http://www.housing.ucdavis.edu/housing/" id="10" description=""/>
		<location name="The+Green" id="1015" lng="-121.773530" lat="38.542499" description="" tab1="https://housing.ucdavis.edu/apartments/the-green/"/></subcategory><subcategory type="private housing" name="Private+On-Campus+Apartments"><location name="8th+%26+Wake" lng="-121.767040" lat="38.549371" tab1="http://www.housing.ucdavis.edu/housing/apartments-8th-and-wake.asp" id="2" directions="yes"/><location name="Atriums+at+La+Rue+Park" id="968" lng="-121.761236" lat="38.545606" description="" tab1="http://housing.ucdavis.edu/housing/apartments_atriums_larue.asp"/><location name="Baggins+End+%28Domes%29" id="687" lng="-121.764981" lat="38.543345" tab1="" description=""/><location name="The+Colleges+at+La+Rue" lng="-121.762198" lat="38.541170" tab1="http://www.housing.ucdavis.edu/housing/" id="0" description=""/><location name="Living+Groups+at+La+Rue+Parkway" lng="-121.761079" lat="38.544283" tab1="http://housing.ucdavis.edu/prospective/general_info_livinggroups.asp" id="3" description=""/><location name="Primero+Grove+Apartments" lng="-121.755597" lat="38.545380" tab1="http://www.housing.ucdavis.edu/housing/" id="5" description=""/><location name="The+Ramble+Apartments" id="802" lng="-121.770623" lat="38.540194" directions="yes" tab1="http://www.ucdaviswestvillage.com/the-ramble-apartments"/><location name="Russell+Park+Apartments" lng="-121.763171" lat="38.545005" tab1="http://www.housing.ucdavis.edu/housing/" id="7" description=""/><location name="Solstice" id="857" lng="-121.772557" lat="38.541460" description="" tab1="http://www.carmelapartments.com/uc-davis-west-village-davis-ca"/><location name="Tri-Cooperatives" id="766" lng="-121.755412" lat="38.543200" tab1="http://www.housing.ucdavis.edu/housing/tri_cooperatives.asp" description=""/><location name="Viridian" id="803" lng="-121.770971" lat="38.541407" directions="no" tab1="http://www.ucdaviswestvillage.com/viridian/" description=""/></subcategory></category><category type="PI" name="Places of Interest"><subcategory type="arboretum" name="UC Davis Arboretum"><location name="Animal+Science+GATEway+Garden" id="853" lng="-121.755894" lat="38.533076" description="" tab1="http://arboretum.ucdavis.edu/default.aspx"/><location name="Arboretum+GATEway+Garden" id="855" lng="-121.741895" lat="38.540050" description="" tab1="http://arboretum.ucdavis.edu/visitor_map.aspx"/><location name="Arboretum+Headquarters" lng="-121.753233" lat="38.533929" tab1="http://arboretum.ucdavis.edu/default.aspx" id="78" description="This building houses the following departments:&lt;br/&gt;&#13;&#10;&lt;ul&gt;&lt;li&gt;&lt;a href=&quot;http://arboretum.ucdavis.edu/&quot;&gt;UC Davis Arboretum Headquarters"/><location name="Arboretum+Teaching+Nursery" lng="-121.762" lat="38.530701" tab1="http://arboretum.ucdavis.edu/visitor_map.aspx" id="79" description=""/><location name="Arboretum+Terrace+Garden+and+Lois+Crowe+Patio" lng="-121.74017" lat="38.541406" tab1="http://arboretum.ucdavis.edu/visitor_map.aspx" id="80" description=""/><location name="Australian+Collection" lng="-121.743451" lat="38.539986" tab1="http://arboretum.ucdavis.edu/visitor_map.aspx" id="81" description=""/><location name="California+Foothill+Collection" lng="-121.750065" lat="38.534719" tab1="http://arboretum.ucdavis.edu/visitor_map.aspx" id="82" description=""/><location name="Carolee+Shields+White+Flower+Garden+and+Gazebo" lng="-121.762348" lat="38.529267" tab1="http://arboretum.ucdavis.edu/visitor_map.aspx" id="83" description=""/><location name="Conifer+Collection" lng="-121.752354" lat=" 38.534170" tab1="http://arboretum.ucdavis.edu/visitor_map.aspx" id="84"/><location name="Desert+Collection" lng="-121.750325" lat="38.535039" tab1="http://arboretum.ucdavis.edu/visitor_map.aspx" id="85" description=""/><location name="East+Asian+Collection" lng="-121.748377" lat="38.537801" tab1="http://arboretum.ucdavis.edu/visitor_map.aspx" id="86" description=""/><location name="Eric+E.+Conn+Acacia+Grove" lng="-121.755521" lat="38.532408" tab1="http://arboretum.ucdavis.edu/visitor_map.aspx" id="87" description=""/><location name="Geology+GATEway+Garden" id="854" lng="-121.751385" lat="38.534824" description="" tab1="http://arboretum.ucdavis.edu/default.aspx"/><location name="Hummingbird+GATEway+Garden+" id="979" lng="-121.761081" lat="38.531681" description="" tab1="http://arboretum.ucdavis.edu/default.aspx"/><location name="Mary+Wattis+Brown+Garden+of+California+Native+Plants" lng="-121.747267" lat="38.537877" tab1="http://arboretum.ucdavis.edu/visitor_map.aspx" id="88" directions="no" description=""/><location name="Mediterranean+Collection" lng="-121.76012" lat="38.530811" tab1="http://arboretum.ucdavis.edu/visitor_map.aspx" id="89" description=""/><location name="Native+American+Contemplative+Garden" lng="-121.749566" lat=" 38.535419" tab1="http://arboretum.ucdavis.edu/visitor_map.aspx" id="90" description=""/><location name="Nature%27s+Gallery+Court" id="826" lng="-121.762118" lat="38.529989" directions="yes" tab1="http://arboretum.ucdavis.edu/visitor_map.aspx" description=""/><location name="North+Coast+Collection" lng="-121.746702" lat="38.539171" tab1="http://arboretum.ucdavis.edu/visitor_map.aspx" id="91"/><location name="Peter+J.+Shields+Oak+Grove" lng="-121.764519" lat="38.529216" tab1="http://arboretum.ucdavis.edu/visitor_map.aspx" id="92" description=""/><location name="Ruth+Risdon+Storer+Garden" lng="-121.763052" lat="38.529807" tab1="http://arboretum.ucdavis.edu/visitor_map.aspx" id="93" description=""/><location name="South+American+Collection" lng="-121.758086" lat="38.531773" tab1="http://arboretum.ucdavis.edu/visitor_map.aspx" id="94" description=""/><location name="Southwest+U.S.A.+%26+Mexican+Collection" lng="-121.754844" lat="38.532999" tab1="http://arboretum.ucdavis.edu/visitor_map.aspx" id="95" description=""/><location name="T.+Elliot+Weier+Redwood+Grove" lng="-121.746439" lat=" 38.539019" tab1="http://arboretum.ucdavis.edu/visitor_map.aspx" id="96" description=""/><location name="Warren+G.+Roberts+Redbud+Collection" lng="-121.751578" lat="38.534542" tab1="http://arboretum.ucdavis.edu/visitor_map.aspx" id="97" description=""/><location name="Wyatt+Deck" id="776" lng="-121.747097" lat="38.538198" directions="no" tab1="http://arboretum.ucdavis.edu/default.aspx" description=""/></subcategory><subcategory type="gardens" name="Gardens &amp; Outdoor Spaces"><location name="UC+Davis+Bee+Haven" id="772" lng="-121.787921" lat="38.536768" directions="yes" tab1="http://beebiology.ucdavis.edu/" description=""/><location name="Lake+Spafford" id="769" lng="-121.748334" lat="38.537236" directions="no" tab1=""/><location name="Margrit+Mondavi+Art+Garden" id="861" lng="-121.747181" lat="38.533781" description="" tab1=""/><location name="Quad" id="770" lng="-121.749319" lat="38.54109" directions="no" tab1=""/><location name="UC+Davis+West+Village+-+Village+Square" id="809" lng="-121.771116" lat="38.541446" directions="yes" tab1="http://westvillage.ucdavis.edu/"/><location name="Vanderhoef+Quad" id="771" lng="-121.747969" lat="38.534465" directions="no" tab1=""/><location name="Village+Square" id="810" lng="-121.771116" lat="38.541446" directions="yes" tab1="http://westvillage.ucdavis.edu/"/></subcategory><subcategory type="edible_gardens" name="Edible Gardens"><location name="Biological+Orchard+and+Gardens+%28BOG%29" id="966" lng="-121.755662" lat="38.541908" description="" tab1="http://ediblecampus.ucdavis.edu/gardens/"/><location name="Dome+7+Garden" id="964" lng="-121.764384" lat="38.543554" description="" tab1="http://ediblecampus.ucdavis.edu/gardens/"/><location name="Edible+Landscaping+Internship+Greenhouse" id="960" lng="-121.747123" lat="38.536238" description="" tab1="http://ediblecampus.ucdavis.edu/gardens/"/><location name="Experimental+College+Community+Garden" id="965" lng="-121.764619" lat="38.542264" description="" tab1="http://ediblecampus.ucdavis.edu/gardens/"/><location name="Good+Life+Garden" id="955" lng="-121.751076" lat="38.532633" description="" tab1="http://ediblecampus.ucdavis.edu/gardens/"/><location name="Horticulture+Innovation+Lab+Demonstration+Center" id="860" lng="-121.747238" lat="38.537050" description="" tab1=""/><location name="The+Resident+Garden" id="963" lng="-121.757361" lat="38.544058" description="" tab1="http://ediblecampus.ucdavis.edu/gardens/"/><location name="Robert+Mondavi+Institute+Teaching+Vineyard" id="961" lng="-121.752995" lat="38.531622" description="" tab1="http://ediblecampus.ucdavis.edu/gardens/"/><location name="Salad+Bowl+Garden" id="958" lng="-121.751736" lat="38.543239" description="" tab1="http://ediblecampus.ucdavis.edu/gardens/"/><location name="Student+Farm+-+Ecological+Garden" id="956" lng="-121.764355" lat="38.538905" description="" tab1="http://ediblecampus.ucdavis.edu/gardens/"/><location name="Student+Farm+-+Market+Garden" id="957" lng="-121.764792" lat="38.540660" description="" tab1="http://ediblecampus.ucdavis.edu/gardens/"/><location name="Student+Wellness+Garden" id="967" lng="-121.761818" lat="38.542306" description="" tab1="http://ediblecampus.ucdavis.edu/gardens/"/><location name="Tri-Cooperatives" id="962" lng="-121.755700" lat="38.542856" description="" tab1="http://ediblecampus.ucdavis.edu/gardens/"/></subcategory><subcategory type="museums" name="Museums %26 Galleries"><location name="Bohart+Museum+of+Entomology" lng="-121.752596" lat="38.535258" tab1="http://bohart.ucdavis.edu/" id="102"/><location name="Botanical+Conservatory" id="775" lng="-121.754827" lat="38.541325" directions="no" tab1="http://greenhouse.ucdavis.edu/conservatory/"/><location name="California+Raptor+Museum" id="773" lng="-121.752324" lat="38.518028" directions="yes" tab1="http://www.vetmed.ucdavis.edu/calraptor/"/><location name="Center+for+Plant+Diversity" id="848" lng="-121.754787" lat="38.539815" directions="no" tab1="http://herbarium.ucdavis.edu/"/><location name="C.N.+Gorman+Museum" lng="-121.746829" lat="38.537545" tab1="https://gormanmuseum.ucdavis.edu/" id="103" description=""/><location name="Design+Museum" lng="-121.753703" lat="38.543412" tab1="http://designmuseum.ucdavis.edu/" id="104" directions="no" description=""/><location name="The+Gallery+at+the+Memorial+Union" lng="-121.749171" lat="38.542280" tab1="" id="105"/><location name="Manetti+Shrem+Museum" id="970" lng="-121.747802" lat="38.533372" description="" tab1=""/><location name="Museum+of+Wildlife+and+Fish+Biology+%28MWFB%29" id="774" lng="-121.752454" lat="38.535240" directions="no" tab1="http://mwfb.ucdavis.edu/"/></subcategory><subcategory type="performing" name="Performing Arts"><location name="Ann+E.+Pitzer+Center" id="969" lng="-121.746901" lat="38.539477" description="" tab1=""/><location name="Freeborn+Hall" lng="-121.750217" lat="38.542600" tab1="http://freebornhall.ucdavis.edu/" id="98"/><location name="Main+Theatre" lng="-121.747863" lat="38.538952" tab1="http://theatredance.ucdavis.edu/aboutus/facilities_main.aspx" id="99" description=""/><location name="Mondavi+Center+for+the+Performing+Arts" lng="-121.749170" lat="38.534376" tab1="http://mondavicenter.ucdavis.edu/" id="100" directions="yes"/><location name="Wyatt+Pavilion+Theatre" lng="-121.746700" lat="38.538115" tab1="http://theatredance.ucdavis.edu/aboutus/facilities_wyatt.aspx" id="101" description=""/></subcategory><subcategory name="Putah Creek Reserve Trailheads" type="putah">
			<location name="Brooks+Road+Trailhead" lng="-121.782" lat="38.5238" tab1="http://putahcreek.ucdavis.edu/" id="107" directions="yes"/>
			<location name="Levee+Road+Trailhead" lng="-121.788893" lat=" 38.524513" tab1="http://putahcreek.ucdavis.edu/" id="108" directions="yes"/>
			<location name="Old+Davis+Road+Trailhead" lng="-121.756375" lat=" 38.517633" tab1="http://putahcreek.ucdavis.edu/" id="109" directions="yes"/>
			<location name="Pedrick+Road+Trailhead" lng="-121.805" lat="38.5274" tab1="http://putahcreek.ucdavis.edu/" id="110" directions="yes"/>
		</subcategory></category><category type="REC" name="Recreation"><subcategory type="sports" name="Sports Venues"><location name="Aggie+Field+Hockey+Facility" id="850" lng="-121.759504" lat="38.534980" description="" tab1="http://www.ucdavisaggies.com/facilities/ucda-facilities.html"/><location name="Aggie+Soccer+Field" lng="-121.756584" lat="38.541671" tab1="http://www.ucdavisaggies.com/facilities/ucda-facilities.html" id="137" directions="no" description=""/><location name="Dobbins+Baseball+Complex" lng="-121.757852" lat="38.541559" tab1="http://www.ucdavisaggies.com/facilities/ucda-facilities.html" id="132" directions="no" description=""/><location name="La+Rue+field" lng="-121.759935" lat="38.545642" tab1="http://www.ucdavisaggies.com/facilities/ucda-facilities.html" id="138"/><location name="Marya+Welch+Tennis+Center" lng="-121.751479" lat="38.544398" tab1="http://www.ucdavisaggies.com/facilities/ucda-facilities.html" id="133" directions="no"/><location name="Schaal+Aquatic+Center" lng="-121.761702" lat="38.534980" tab1="http://www.ucdavisaggies.com/facilities/ucda-facilities.html" id="135" directions="no"/><location name="Toomey+Field" lng="-121.748234" lat="38.545215" tab1="http://www.ucdavisaggies.com/facilities/ucda-facilities.html" id="136" directions="no"/><location name="UC+Davis+Health+Stadium" lng="-121.762769" lat="38.536553" tab1="http://www.ucdavis.edu/spotlight/0807/map.html" id="131" description=""/><location name="University+Credit+Union+Center" id="793" lng="-121.759607" lat="38.541850" directions="no" tab1="http://www.ucdavisaggies.com/facilities/ucda-facilities.html" description=""/></subcategory><subcategory type="intramural" name="Intramural+Fields">
			<location name="A+Street+Field" id="796" lng="-121.747667" lat="38.543977" directions="yes" tab1=""/>
			<location name="Dairy+Road+Field" id="800" lng="-121.759797" lat="38.538490" directions="no" tab1=""/>
			<location name="East+Field" id="795" lng="-121.747145" lat="38.541793" directions="yes" tab1=""/>
			<location name="Howard+Field" id="797" lng="-121.749657" lat="38.545374" directions="no" tab1=""/>
			<location name="Hutchison+Field" id="799" lng="-121.759725" lat="38.540090" directions="no" tab1=""/>
			<location name="Russell+Field" id="798" lng="-121.751860" lat="38.545369" directions="no" tab1=""/>
			<location name="Solano+Field" id="794" lng="-121.746976" lat="38.536973" directions="no" tab1=""/>
		</subcategory><subcategory type="Recreation" name="Recreation"><location name="Activities+%26+Recreation+Center+%28ARC%29" id="974" lng="-121.759651" lat="38.54291" description="" tab1=""/><location name="Craft+Center" id="975" lng="-121.753034" lat="38.538198" description="" tab1=""/><location name="Equestrian+Center+Covered+Arena" id="972" lng="-121.766972" lat="38.527353" description="" tab1=""/><location name="Games+Area" id="1010" lng="-121.749323" lat="38.542466" description="" tab1="https://memorialunion.ucdavis.edu/games-area"/><location name="Gunrock+Gaming" id="1009" lng="-121.748962" lat="38.542325" description="" tab1="https://memorialunion.ucdavis.edu/gunrock-gaming"/><location name="Outdoor+Adventures" id="973" lng="-121.762144" lat="38.540367" description="" tab1=""/><location name="Rec+Pool" id="858" lng="-121.761684" lat="38.539760" description="" tab1="https://cru.ucdavis.edu/content.cfm?contentID=47&amp;redirectedFrom=content&amp;redirectedFromID=158&amp;CFID=3593771&amp;CFTOKEN=39926378"/><location name="UC+Davis+Marching+Band" id="1008" lng="-121.759757" lat="38.542758" description="" tab1="https://campusrecreation.ucdavis.edu/band"/></subcategory></category><category type="TP" name="Transportation %26 Parking"><subcategory type="permit" name="Visitor and C-Permit Parking">
			<location name="Gateway+Parking+Structure" lng="-121.748928" lat="38.533257" tab1="" id="30" directions="no" description=""/>
			<location name="Pavilion+Parking+Structure" lng="-121.758182" lat="38.53969" tab1="" id="55" directions="no" description=""/>
			<location name="Quad+Parking+Structure" lng="-121.749561" lat="38.544416" tab1="" id="27" directions="no" description=""/>
			<location name="VP 1" lng="-121.747024" lat="38.533821" tab1="" id="31"/>
			<location name="VP 1" lng="-121.74903" lat="38.532567" tab1="" id="32"/>
			<location name="VP 2" lng="-121.749738" lat="38.531721" tab1="" id="33"/>
			<location name="VP 5" lng="-121.745137" lat="38.538759" tab1="" id="34"/>
			
			<location name="VP 16" lng="-121.755182" lat="38.544824" tab1="" id="36"/>
			
			<location name="VP 22" lng="-121.75625" lat="38.544783" tab1="" id="38"/>
			<location name="VP 25" lng="-121.757572" lat="38.54304" tab1="" id="39"/>
			<location name="VP 30" lng="-121.763139" lat="38.539726" tab1="" id="40"/>
			<location name="VP 35" lng="-121.761509" lat="38.543254" tab1="" id="41"/>
			<location name="VP 40" lng="-121.758319" lat="38.538669" tab1="" id="42"/>
			<location name="VP 47" lng="-121.756465" lat="38.534836" tab1="" id="43"/>
			<location name="VP 48" lng="-121.759114" lat="38.53679" tab1="" id="44"/>
			<location name="VP 49" lng="-121.759511" lat="38.533746" tab1="" id="46"/>
			<location name="VP 50" lng="-121.762806" lat="38.532033" tab1="" id="47"/>
			<location name="VP 51" lng="-121.765454" lat="38.531833" tab1="" id="48"/>
			<location name="VP 53" lng="-121.766406" lat="38.534336" tab1="" id="49"/>
			<location name="VP 54" lng="-121.76181" lat="38.53101" tab1="" id="50"/>
			<location name="VP 55" lng="-121.762612" lat="38.531066" tab1="" id="51"/>
			<location name="VP 56" lng="-121.762888" lat="38.535146" tab1="" id="52"/>
			<location name="VP 57" lng="-121.767661" lat="38.533406" tab1="" id="53"/>
			<location name="VP PCL" lng="-121.759548" lat="38.531836" tab1="" id="54"/>
		<location name="VP+80" id="989" lng="-121.732007" lat="38.539447" description="" tab1=""/><location name="VP+81" id="990" lng="-121.732794" lat="38.537987" description="" tab1=""/><location name="VP+82" id="991" lng="-121.733681" lat="38.538914" description="" tab1=""/><location name="VP+83" id="992" lng="-121.735242" lat="38.539190" description="" tab1=""/></subcategory><subcategory type="bus" name="Unitrans Terminals">
			<location name="Memorial+Union+Unitrans+Terminal" lat="38.54360484760051" lng="-121.74985527992249" tab1="http://www.unitrans.ucdavis.edu/" id="23"/>
			<location name="Silo+Unitrans+Terminal" lat="38.5392118211667" lng="-121.75335824489594" tab1="http://www.unitrans.ucdavis.edu/" id="24"/>
		</subcategory><subcategory type="A_permit" name="A Permit Parking"><location name="Gateway+Parking+Structure" lng="-121.749258" lat="38.533214" tab1="" id="76" directions="no"/><location name="Pavilion+Parking+Structure" lng="-121.757888" lat="38.539692" tab1="" id="77" directions="no"/><location name="Quad+Parking+Structure" lng="-121.749268" lat="38.544446" tab1="" id="56" directions="no"/><location name="P 3" lng="-121.750159" lat="38.53672" tab1="" id="57"/><location name="P 4" lng="-121.746991" lat="38.536137" tab1="" id="58"/><location name="P 5A" lng="-121.74583" lat="38.538851" tab1="" id="59"/><location name="P 6" lng="-121.748809" lat="38.538644" tab1="" id="60"/><location name="P 10" lng="-121.745383" lat="38.540532" tab1="" id="61"/><location name="P 14" lng="-121.75136" lat="38.543881" tab1="" id="62"/><location name="P 14" lng="-121.752908" lat="38.543917" tab1="" id="63"/><location name="P+15" id="1020" lng="-121.75283975483974" lat="38.54429096004601" description="" tab1=""/><location name="P 20" lng="-121.753777" lat="38.542929" tab1="" id="64"/><location name="P 21" lng="-121.754748" lat="38.544473" tab1="" id="65"/><location name="P 26" lng="-121.755504" lat="38.541195" tab1="" id="66"/><location name="P 27" lng="-121.754484" lat="38.541563" tab1="" id="67"/><location name="P 41" lng="-121.757204" lat="38.538633" tab1="" id="68"/><location name="P 44" lng="-121.754925" lat="38.535815" tab1="" id="72"/><location name="P 46" lng="-121.75333" lat="38.53472" tab1="" id="73"/><location name="P 52" lng="-121.765773" lat="38.533319" tab1="" id="74"/><location name="P 56A" lng="-121.763733" lat="38.535141" tab1="" id="75"/></subcategory></category><category type="ACC" name="Accessibility">
		<subcategory name="Accessible+Entry" type="entry">
			<location name="" lng="-121.748801" lat="38.544323" tab1="" id="148"/>
			<location name="" lng="-121.748814" lat="38.543862" tab1="" id="149"/>
			<location name="" lng="-121.749417" lat="38.543688" tab1="" id="150"/>
			<location name="" lng="-121.748473" lat="38.543487" tab1="" id="151"/>
			<location name="" lng="-121.751149" lat="38.543172" tab1="" id="152"/>
			<location name="" lng="-121.750831" lat="38.543138" tab1="" id="153"/>
			<location name="" lng="-121.751470" lat="38.543623" tab1="" id="154"/>
			<location name="" lng="-121.752703" lat="38.543053" tab1="" id="155"/>
			<location name="" lng="-121.752414" lat="38.543362" tab1="" id="156"/>
			<location name="" lng="-121.751516" lat="38.541895" tab1="" id="157"/>
			<location name="" lng="-121.751631" lat="38.542194" tab1="" id="158"/>
			<location name="" lng="-121.752151" lat="38.542287" tab1="" id="159"/>
			<location name="" lng="-121.752172" lat="38.542080" tab1="" id="160"/>
			<location name="" lng="-121.752197" lat="38.540674" tab1="" id="161"/>
			<location name="" lng="-121.751635" lat="38.541362" tab1="" id="162"/>
			<location name="" lng="-121.751597" lat="38.541207" tab1="" id="163"/>
			<location name="" lng="-121.752349" lat="38.540931" tab1="" id="164"/>
			<location name="" lng="-121.750262" lat="38.541883" tab1="" id="165"/>
			<location name="" lng="-121.749956" lat="38.542279" tab1="" id="166"/>
			<location name="" lng="-121.751917" lat="38.540512" tab1="" id="167"/>
			<location name="" lng="-121.750545" lat="38.540501" tab1="" id="168"/>
			<location name="" lng="-121.750317" lat="38.539877" tab1="" id="169"/>
			<location name="" lng="-121.750796" lat="38.539500" tab1="" id="170"/>
			<location name="" lng="-121.750831" lat="38.539275" tab1="" id="171"/>
			<location name="" lng="-121.750860" lat="38.541006" tab1="" id="172"/>
			<location name="" lng="-121.750839" lat="38.540880" tab1="" id="173"/>
			<location name="" lng="-121.750798" lat="38.540632" tab1="" id="174"/>
			<location name="" lng="-121.750948" lat="38.543396" tab1="" id="175"/>
			<location name="" lng="-121.750947" lat="38.543514" tab1="" id="176"/>
			<location name="" lng="-121.749114" lat="38.542517" tab1="" id="177"/>
			<location name="" lng="-121.749443" lat="38.542444" tab1="" id="178"/>
			<location name="" lng="-121.749403" lat="38.542515" tab1="" id="179"/>
			<location name="" lng="-121.749564" lat="38.541956" tab1="" id="180"/>
			<location name="" lng="-121.749123" lat="38.542034" tab1="" id="181"/>
			<location name="" lng="-121.749336" lat="38.542262" tab1="" id="182"/>
			<location name="" lng="-121.749800" lat="38.539582" tab1="" id="183"/>
			<location name="" lng="-121.749374" lat="38.540143" tab1="" id="184"/>
			<location name="" lng="-121.748964" lat="38.542279" tab1="" id="185"/>
			<location name="" lng="-121.749010" lat="38.542389" tab1="" id="186"/>
			<location name="" lng="-121.747112" lat="38.540494" tab1="" id="187"/>
			<location name="" lng="-121.746604" lat="38.540312" tab1="" id="188"/>
			<location name="" lng="-121.746629" lat="38.540278" tab1="" id="189"/>
			<location name="" lng="-121.746861" lat="38.540691" tab1="" id="190"/>
			<location name="" lng="-121.746781" lat="38.540438" tab1="" id="191"/>
			<location name="" lng="-121.747845" lat="38.539956" tab1="" id="192"/>
			<location name="" lng="-121.747592" lat="38.540220" tab1="" id="193"/>
			<location name="" lng="-121.747487" lat="38.539808" tab1="" id="194"/>
			<location name="" lng="-121.747753" lat="38.540222" tab1="" id="195"/>
			<location name="" lng="-121.747641" lat="38.539813" tab1="" id="196"/>
			<location name="" lng="-121.749927" lat="38.544161" tab1="" id="197"/>
			<location name="" lng="-121.748504" lat="38.543085" tab1="" id="198"/>
			<location name="" lng="-121.748624" lat="38.542682" tab1="" id="199"/>
			<location name="" lng="-121.748590" lat="38.542569" tab1="" id="200"/>
			<location name="" lng="-121.748170" lat="38.542488" tab1="" id="201"/>
			<location name="" lng="-121.748015" lat="38.542357" tab1="" id="202"/>
			<location name="" lng="-121.748092" lat="38.542352" tab1="" id="203"/>
			<location name="" lng="-121.748070" lat="38.542284" tab1="" id="204"/>
			<location name="" lng="-121.748200" lat="38.542203" tab1="" id="205"/>
			<location name="" lng="-121.752098" lat="38.540185" tab1="" id="206"/>
			<location name="" lng="-121.751956" lat="38.542913" tab1="" id="207"/>
			<location name="" lng="-121.747070" lat="38.543273" tab1="" id="208"/>
			<location name="" lng="-121.747083" lat="38.543175" tab1="" id="209"/>
			<location name="" lng="-121.748174" lat="38.542701" tab1="" id="210"/>
			<location name="" lng="-121.748097" lat="38.542763" tab1="" id="211"/>
			<location name="" lng="-121.748030" lat="38.542825" tab1="" id="212"/>
			<location name="" lng="-121.748094" lat="38.543162" tab1="" id="213"/>
			<location name="" lng="-121.748303" lat="38.542770" tab1="" id="214"/>
			<location name="" lng="-121.748273" lat="38.542668" tab1="" id="215"/>
			<location name="" lng="-121.748361" lat="38.542804" tab1="" id="216"/>
			<location name="" lng="-121.751013" lat="38.541980" tab1="" id="217"/>
			<location name="" lng="-121.751862" lat="38.542934" tab1="" id="218"/>
			<location name="" lng="-121.751944" lat="38.543064" tab1="" id="219"/>
			<location name="" lng="-121.747892" lat="38.543223" tab1="" id="220"/>
			<location name="" lng="-121.747716" lat="38.543104" tab1="" id="221"/>
			<location name="" lng="-121.748087" lat="38.543102" tab1="" id="222"/>
			<location name="" lng="-121.748180" lat="38.543034" tab1="" id="223"/>
			<location name="" lng="-121.747470" lat="38.542961" tab1="" id="224"/>
			<location name="" lng="-121.747592" lat="38.542963" tab1="" id="225"/>
			<location name="" lng="-121.748410" lat="38.542910" tab1="" id="226"/>
			<location name="" lng="-121.748342" lat="38.542949" tab1="" id="227"/>
			<location name="" lng="-121.748523" lat="38.542950" tab1="" id="228"/>
			<location name="" lng="-121.747946" lat="38.542660" tab1="" id="229"/>
			<location name="" lng="-121.747607" lat="38.542791" tab1="" id="230"/>
			<location name="" lng="-121.747561" lat="38.543048" tab1="" id="231"/>
			<location name="" lng="-121.748211" lat="38.543264" tab1="" id="232"/>
			<location name="" lng="-121.748025" lat="38.542769" tab1="" id="233"/>
			<location name="" lng="-121.748075" lat="38.542854" tab1="" id="234"/>
			<location name="" lng="-121.748198" lat="38.541457" tab1="" id="235"/>
			<location name="" lng="-121.749293" lat="38.537218" tab1="" id="236"/>
			<location name="" lng="-121.751002" lat="38.537217" tab1="" id="237"/>
			<location name="" lng="-121.750541" lat="38.538078" tab1="" id="238"/>
			<location name="" lng="-121.751540" lat="38.538876" tab1="" id="239"/>
			<location name="" lng="-121.751427" lat="38.538093" tab1="" id="240"/>
			<location name="" lng="-121.751442" lat="38.538258" tab1="" id="241"/>
			<location name="" lng="-121.748175" lat="38.539041" tab1="" id="242"/>
			<location name="" lng="-121.748882" lat="38.538889" tab1="" id="243"/>
			<location name="" lng="-121.747598" lat="38.539112" tab1="" id="244"/>
			<location name="" lng="-121.747413" lat="38.538951" tab1="" id="245"/>
			<location name="" lng="-121.747419" lat="38.539373" tab1="" id="246"/>
			<location name="" lng="-121.750911" lat="38.538233" tab1="" id="247"/>
			<location name="" lng="-121.747861" lat="38.541595" tab1="" id="248"/>
			<location name="" lng="-121.747842" lat="38.541526" tab1="" id="249"/>
			<location name="" lng="-121.747820" lat="38.541462" tab1="" id="250"/>
			<location name="" lng="-121.747536" lat="38.541610" tab1="" id="251"/>
			<location name="" lng="-121.747499" lat="38.540921" tab1="" id="252"/>
			<location name="" lng="-121.747880" lat="38.540768" tab1="" id="253"/>
			<location name="" lng="-121.747241" lat="38.541298" tab1="" id="254"/>
			<location name="" lng="-121.747145" lat="38.541021" tab1="" id="255"/>
			<location name="" lng="-121.746754" lat="38.541438" tab1="" id="256"/>
			<location name="" lng="-121.746649" lat="38.541122" tab1="" id="257"/>
			<location name="" lng="-121.752789" lat="38.536575" tab1="" id="258"/>
			<location name="" lng="-121.752301" lat="38.536609" tab1="" id="259"/>
			<location name="" lng="-121.753265" lat="38.535080" tab1="" id="260"/>
			<location name="" lng="-121.752559" lat="38.535074" tab1="" id="261"/>
			<location name="" lng="-121.752715" lat="38.534635" tab1="" id="262"/>
			<location name="" lng="-121.754181" lat="38.537434" tab1="" id="263"/>
			<location name="" lng="-121.753029" lat="38.537411" tab1="" id="264"/>
			<location name="" lng="-121.753659" lat="38.536658" tab1="" id="265"/>
			<location name="" lng="-121.754544" lat="38.537206" tab1="" id="266"/>
			<location name="" lng="-121.754963" lat="38.536892" tab1="" id="267"/>
			<location name="" lng="-121.754669" lat="38.536939" tab1="" id="268"/>
			<location name="" lng="-121.755494" lat="38.537242" tab1="" id="269"/>
			<location name="" lng="-121.752244" lat="38.538839" tab1="" id="270"/>
			<location name="" lng="-121.752211" lat="38.538459" tab1="" id="271"/>
			<location name="" lng="-121.752962" lat="38.538680" tab1="" id="272"/>
			<location name="" lng="-121.752783" lat="38.538878" tab1="" id="273"/>
			<location name="" lng="-121.753106" lat="38.538845" tab1="" id="274"/>
			<location name="" lng="-121.753697" lat="38.536347" tab1="" id="275"/>
			<location name="" lng="-121.752554" lat="38.535903" tab1="" id="276"/>
			<location name="" lng="-121.754363" lat="38.536648" tab1="" id="277"/>
			<location name="" lng="-121.753452" lat="38.535733" tab1="" id="278"/>
			<location name="" lng="-121.754420" lat="38.535940" tab1="" id="279"/>
			<location name="" lng="-121.754528" lat="38.535538" tab1="" id="280"/>
			<location name="" lng="-121.753908" lat="38.535722" tab1="" id="281"/>
			<location name="" lng="-121.753997" lat="38.535364" tab1="" id="282"/>
			<location name="" lng="-121.753891" lat="38.535383" tab1="" id="283"/>
			<location name="" lng="-121.752292" lat="38.535919" tab1="" id="284"/>
			<location name="" lng="-121.752387" lat="38.535919" tab1="" id="285"/>
			<location name="" lng="-121.752475" lat="38.535919" tab1="" id="286"/>
			<location name="" lng="-121.754061" lat="38.540709" tab1="" id="287"/>
			<location name="" lng="-121.753388" lat="38.540828" tab1="" id="288"/>
			<location name="" lng="-121.754942" lat="38.540759" tab1="" id="289"/>
			<location name="" lng="-121.755194" lat="38.540714" tab1="" id="290"/>
			<location name="" lng="-121.753571" lat="38.541293" tab1="" id="291"/>
			<location name="" lng="-121.754783" lat="38.534796" tab1="" id="292"/>
			<location name="" lng="-121.754224" lat="38.534794" tab1="" id="293"/>
			<location name="" lng="-121.754819" lat="38.534691" tab1="" id="294"/>
			<location name="" lng="-121.754535" lat="38.534662" tab1="" id="295"/>
			<location name="" lng="-121.755894" lat="38.540229" tab1="" id="296"/>
			<location name="" lng="-121.756817" lat="38.539447" tab1="" id="297"/>
			<location name="" lng="-121.756721" lat="38.539610" tab1="" id="298"/>
			<location name="" lng="-121.756243" lat="38.540471" tab1="" id="299"/>
			<location name="" lng="-121.756265" lat="38.539579" tab1="" id="300"/>
			<location name="" lng="-121.756229" lat="38.539761" tab1="" id="301"/>
			<location name="" lng="-121.756806" lat="38.540041" tab1="" id="302"/>
			<location name="" lng="-121.757004" lat="38.540021" tab1="" id="303"/>
			<location name="" lng="-121.753531" lat="38.541920" tab1="" id="304"/>
			<location name="" lng="-121.753514" lat="38.541850" tab1="" id="305"/>
			<location name="" lng="-121.753495" lat="38.541785" tab1="" id="306"/>
			<location name="" lng="-121.753474" lat="38.541723" tab1="" id="307"/>
			<location name="" lng="-121.753454" lat="38.541660" tab1="" id="308"/>
			<location name="" lng="-121.753117" lat="38.538694" tab1="" id="309"/>
			<location name="" lng="-121.752657" lat="38.538262" tab1="" id="310"/>
			<location name="" lng="-121.754705" lat="38.539272" tab1="" id="311"/>
			<location name="" lng="-121.754792" lat="38.539270" tab1="" id="312"/>
			<location name="" lng="-121.755044" lat="38.540187" tab1="" id="313"/>
			<location name="" lng="-121.754944" lat="38.540205" tab1="" id="314"/>
			<location name="" lng="-121.746572" lat="38.536191" tab1="" id="315"/>
			<location name="" lng="-121.746506" lat="38.536143" tab1="" id="316"/>
			<location name="" lng="-121.746774" lat="38.536358" tab1="" id="317"/>
			<location name="" lng="-121.746720" lat="38.536322" tab1="" id="318"/>
			<location name="" lng="-121.746666" lat="38.536285" tab1="" id="319"/>
			<location name="" lng="-121.747160" lat="38.536542" tab1="" id="320"/>
			<location name="" lng="-121.747060" lat="38.536470" tab1="" id="321"/>
			<location name="" lng="-121.746952" lat="38.536412" tab1="" id="322"/>
			<location name="" lng="-121.747301" lat="38.536144" tab1="" id="323"/>
			<location name="" lng="-121.747312" lat="38.536006" tab1="" id="324"/>
			<location name="" lng="-121.747272" lat="38.536367" tab1="" id="325"/>
			<location name="" lng="-121.747121" lat="38.536432" tab1="" id="326"/>
			<location name="" lng="-121.755041" lat="38.539827" tab1="" id="327"/>
			<location name="" lng="-121.755080" lat="38.540132" tab1="" id="328"/>
			<location name="" lng="-121.754429" lat="38.539410" tab1="" id="329"/>
			<location name="" lng="-121.752521" lat="38.539769" tab1="" id="330"/>
			<location name="" lng="-121.753885" lat="38.539823" tab1="" id="331"/>
			<location name="" lng="-121.754066" lat="38.539733" tab1="" id="332"/>
			<location name="" lng="-121.746632" lat="38.535969" tab1="" id="333"/>
			<location name="" lng="-121.746667" lat="38.536082" tab1="" id="334"/>
			<location name="" lng="-121.746604" lat="38.536132" tab1="" id="335"/>
			<location name="" lng="-121.753493" lat="38.543069" tab1="" id="336"/>
			<location name="" lng="-121.756124" lat="38.543361" tab1="" id="337"/>
			<location name="" lng="-121.756108" lat="38.542913" tab1="" id="338"/>
			<location name="" lng="-121.754533" lat="38.537889" tab1="" id="339"/>
			<location name="" lng="-121.754585" lat="38.537510" tab1="" id="340"/>
			<location name="" lng="-121.754281" lat="38.538262" tab1="" id="341"/>
			<location name="" lng="-121.754137" lat="38.538541" tab1="" id="342"/>
			<location name="" lng="-121.754100" lat="38.538642" tab1="" id="343"/>
			<location name="" lng="-121.753944" lat="38.538729" tab1="" id="344"/>
			<location name="" lng="-121.754265" lat="38.538513" tab1="" id="345"/>
			<location name="" lng="-121.754093" lat="38.538811" tab1="" id="346"/>
			<location name="" lng="-121.754200" lat="38.538807" tab1="" id="347"/>
			<location name="" lng="-121.754064" lat="38.538676" tab1="" id="348"/>
			<location name="" lng="-121.754252" lat="38.538635" tab1="" id="349"/>
			<location name="" lng="-121.755304" lat="38.538297" tab1="" id="350"/>
			<location name="" lng="-121.755158" lat="38.538716" tab1="" id="351"/>
			<location name="" lng="-121.754819" lat="38.537982" tab1="" id="352"/>
			<location name="" lng="-121.755113" lat="38.537222" tab1="" id="353"/>
			<location name="" lng="-121.755834" lat="38.538196" tab1="" id="354"/>
			<location name="" lng="-121.754907" lat="38.538597" tab1="" id="355"/>
			<location name="" lng="-121.754549" lat="38.538859" tab1="" id="356"/>
			<location name="" lng="-121.755657" lat="38.538062" tab1="" id="357"/>
			<location name="" lng="-121.756012" lat="38.538721" tab1="" id="358"/>
			<location name="" lng="-121.755188" lat="38.542922" tab1="" id="359"/>
			<location name="" lng="-121.754675" lat="38.542855" tab1="" id="360"/>
			<location name="" lng="-121.754906" lat="38.542756" tab1="" id="361"/>
			<location name="" lng="-121.754938" lat="38.538396" tab1="" id="362"/>
			<location name="" lng="-121.752599" lat="38.534317" tab1="" id="363"/>
			<location name="" lng="-121.753631" lat="38.534050" tab1="" id="364"/>
			<location name="" lng="-121.753054" lat="38.534046" tab1="" id="365"/>
			<location name="" lng="-121.753525" lat="38.533803" tab1="" id="366"/>
			<location name="" lng="-121.753506" lat="38.533849" tab1="" id="367"/>
			<location name="" lng="-121.753331" lat="38.533883" tab1="" id="368"/>
			<location name="" lng="-121.764626" lat="38.537586" tab1="" id="369"/>
			<location name="" lng="-121.764519" lat="38.537589" tab1="" id="370"/>
			<location name="" lng="-121.764423" lat="38.537591" tab1="" id="371"/>
			<location name="" lng="-121.764305" lat="38.537684" tab1="" id="372"/>
			<location name="" lng="-121.764202" lat="38.537685" tab1="" id="373"/>
			<location name="" lng="-121.764628" lat="38.537868" tab1="" id="374"/>
			<location name="" lng="-121.764522" lat="38.537869" tab1="" id="375"/>
			<location name="" lng="-121.764415" lat="38.537867" tab1="" id="376"/>
			<location name="" lng="-121.764305" lat="38.537864" tab1="" id="377"/>
			<location name="" lng="-121.764207" lat="38.537864" tab1="" id="378"/>
			<location name="" lng="-121.764095" lat="38.537862" tab1="" id="379"/>
			<location name="" lng="-121.763992" lat="38.537862" tab1="" id="380"/>
			<location name="" lng="-121.763885" lat="38.537958" tab1="" id="381"/>
			<location name="" lng="-121.763784" lat="38.537958" tab1="" id="382"/>
			<location name="" lng="-121.763993" lat="38.538130" tab1="" id="383"/>
			<location name="" lng="-121.763883" lat="38.538130" tab1="" id="384"/>
			<location name="" lng="-121.763778" lat="38.538129" tab1="" id="385"/>
			<location name="" lng="-121.763671" lat="38.538131" tab1="" id="386"/>
			<location name="" lng="-121.764007" lat="38.538540" tab1="" id="387"/>
			<location name="" lng="-121.763453" lat="38.539015" tab1="" id="388"/>
			<location name="" lng="-121.763283" lat="38.539019" tab1="" id="389"/>
			<location name="" lng="-121.763714" lat="38.538321" tab1="" id="390"/>
			<location name="" lng="-121.764228" lat="38.538319" tab1="" id="391"/>
			<location name="" lng="-121.764645" lat="38.538297" tab1="" id="392"/>
			<location name="" lng="-121.764486" lat="38.538321" tab1="" id="393"/>
			<location name="" lng="-121.763466" lat="38.538697" tab1="" id="394"/>
			<location name="" lng="-121.763211" lat="38.538744" tab1="" id="395"/>
			<location name="" lng="-121.763803" lat="38.538411" tab1="" id="396"/>
			<location name="" lng="-121.763385" lat="38.538446" tab1="" id="397"/>
			<location name="" lng="-121.763281" lat="38.538340" tab1="" id="398"/>
			<location name="" lng="-121.763177" lat="38.538393" tab1="" id="399"/>
			<location name="" lng="-121.752834" lat="38.534156" tab1="" id="400"/>
			<location name="" lng="-121.764491" lat="38.539620" tab1="" id="401"/>
			<location name="" lng="-121.764407" lat="38.539621" tab1="" id="402"/>
			<location name="" lng="-121.764439" lat="38.539651" tab1="" id="403"/>
			<location name="" lng="-121.764556" lat="38.539649" tab1="" id="404"/>
			<location name="" lng="-121.764385" lat="38.539469" tab1="" id="405"/>
			<location name="" lng="-121.764295" lat="38.539793" tab1="" id="406"/>
			<location name="" lng="-121.764188" lat="38.539792" tab1="" id="407"/>
			<location name="" lng="-121.764536" lat="38.539799" tab1="" id="408"/>
			<location name="" lng="-121.764508" lat="38.539521" tab1="" id="409"/>
			<location name="" lng="-121.764993" lat="38.539408" tab1="" id="410"/>
			<location name="" lng="-121.765028" lat="38.539435" tab1="" id="411"/>
			<location name="" lng="-121.765027" lat="38.539368" tab1="" id="412"/>
			<location name="" lng="-121.764694" lat="38.539613" tab1="" id="413"/>
			<location name="" lng="-121.764690" lat="38.539558" tab1="" id="414"/>
			<location name="" lng="-121.764530" lat="38.539478" tab1="" id="415"/>
			<location name="" lng="-121.764528" lat="38.539415" tab1="" id="416"/>
			<location name="" lng="-121.764661" lat="38.539420" tab1="" id="417"/>
			<location name="" lng="-121.756931" lat="38.537894" tab1="" id="418"/>
			<location name="" lng="-121.756828" lat="38.537894" tab1="" id="419"/>
			<location name="" lng="-121.757522" lat="38.537998" tab1="" id="420"/>
			<location name="" lng="-121.757435" lat="38.537998" tab1="" id="421"/>
			<location name="" lng="-121.757518" lat="38.537975" tab1="" id="422"/>
			<location name="" lng="-121.756593" lat="38.537638" tab1="" id="423"/>
			<location name="" lng="-121.756448" lat="38.537635" tab1="" id="424"/>
			<location name="" lng="-121.756334" lat="38.537637" tab1="" id="425"/>
			<location name="" lng="-121.756159" lat="38.537777" tab1="" id="426"/>
			<location name="" lng="-121.757393" lat="38.538018" tab1="" id="427"/>
			<location name="" lng="-121.757394" lat="38.537943" tab1="" id="428"/>
			<location name="" lng="-121.757213" lat="38.538055" tab1="" id="429"/>
			<location name="" lng="-121.757213" lat="38.537993" tab1="" id="430"/>
			<location name="" lng="-121.757212" lat="38.537929" tab1="" id="431"/>
			<location name="" lng="-121.757057" lat="38.537983" tab1="" id="432"/>
			<location name="" lng="-121.757050" lat="38.537925" tab1="" id="433"/>
			<location name="" lng="-121.756417" lat="38.537903" tab1="" id="434"/>
			<location name="" lng="-121.756432" lat="38.537740" tab1="" id="435"/>
			<location name="" lng="-121.756252" lat="38.537916" tab1="" id="436"/>
			<location name="" lng="-121.757655" lat="38.538272" tab1="" id="437"/>
			<location name="" lng="-121.757675" lat="38.537707" tab1="" id="438"/>
			<location name="" lng="-121.757303" lat="38.537611" tab1="" id="439"/>
			<location name="" lng="-121.764254" lat="38.539776" tab1="" id="440"/>
			<location name="" lng="-121.764321" lat="38.533986" tab1="" id="441"/>
			<location name="" lng="-121.764385" lat="38.534255" tab1="" id="442"/>
			<location name="" lng="-121.765235" lat="38.533726" tab1="" id="443"/>
			<location name="" lng="-121.765232" lat="38.534211" tab1="" id="444"/>
			<location name="" lng="-121.765174" lat="38.533701" tab1="" id="445"/>
			<location name="" lng="-121.765117" lat="38.533675" tab1="" id="446"/>
			<location name="" lng="-121.764425" lat="38.533666" tab1="" id="447"/>
			<location name="" lng="-121.764397" lat="38.533719" tab1="" id="448"/>
			<location name="" lng="-121.765169" lat="38.534241" tab1="" id="449"/>
			<location name="" lng="-121.765143" lat="38.534292" tab1="" id="450"/>
			<location name="" lng="-121.764449" lat="38.534283" tab1="" id="451"/>
			<location name="" lng="-121.764770" lat="38.533597" tab1="" id="452"/>
			<location name="" lng="-121.764790" lat="38.534364" tab1="" id="453"/>
			<location name="" lng="-121.764874" lat="38.535286" tab1="" id="454"/>
			<location name="" lng="-121.764810" lat="38.535199" tab1="" id="455"/>
			<location name="" lng="-121.764999" lat="38.535139" tab1="" id="456"/>
			<location name="" lng="-121.764999" lat="38.535069" tab1="" id="457"/>
			<location name="" lng="-121.764999" lat="38.534998" tab1="" id="458"/>
			<location name="" lng="-121.765481" lat="38.534942" tab1="" id="459"/>
			<location name="" lng="-121.765082" lat="38.534802" tab1="" id="460"/>
			<location name="" lng="-121.765258" lat="38.535412" tab1="" id="461"/>
			<location name="" lng="-121.764834" lat="38.535150" tab1="" id="462"/>
			<location name="" lng="-121.763508" lat="38.534077" tab1="" id="463"/>
			<location name="" lng="-121.764028" lat="38.534349" tab1="" id="464"/>
			<location name="" lng="-121.763955" lat="38.534289" tab1="" id="465"/>
			<location name="" lng="-121.763854" lat="38.534254" tab1="" id="466"/>
			<location name="" lng="-121.763798" lat="38.534206" tab1="" id="467"/>
			<location name="" lng="-121.764060" lat="38.534502" tab1="" id="468"/>
			<location name="" lng="-121.763969" lat="38.534566" tab1="" id="469"/>
			<location name="" lng="-121.763676" lat="38.534428" tab1="" id="470"/>
			<location name="" lng="-121.763613" lat="38.534381" tab1="" id="471"/>
			<location name="" lng="-121.763800" lat="38.534572" tab1="" id="472"/>
			<location name="" lng="-121.763723" lat="38.534513" tab1="" id="473"/>
			<location name="" lng="-121.763529" lat="38.533534" tab1="" id="474"/>
			<location name="" lng="-121.764033" lat="38.533421" tab1="" id="475"/>
			<location name="" lng="-121.763956" lat="38.533355" tab1="" id="476"/>
			<location name="" lng="-121.764033" lat="38.533593" tab1="" id="477"/>
			<location name="" lng="-121.763796" lat="38.533309" tab1="" id="478"/>
			<location name="" lng="-121.763536" lat="38.533469" tab1="" id="479"/>
			<location name="" lng="-121.765736" lat="38.533724" tab1="" id="480"/>
			<location name="" lng="-121.765624" lat="38.533724" tab1="" id="481"/>
			<location name="" lng="-121.766670" lat="38.533471" tab1="" id="482"/>
			<location name="" lng="-121.766826" lat="38.533188" tab1="" id="483"/>
			<location name="" lng="-121.759006" lat="38.542643" tab1="" id="484"/>
			<location name="" lng="-121.759007" lat="38.543141" tab1="" id="485"/>
			<location name="" lng="-121.759080" lat="38.542589" tab1="" id="486"/>
			<location name="" lng="-121.759243" lat="38.543089" tab1="" id="487"/>
			<location name="" lng="-121.759351" lat="38.543082" tab1="" id="488"/>
			<location name="" lng="-121.759454" lat="38.543084" tab1="" id="489"/>
			<location name="" lng="-121.759528" lat="38.543137" tab1="" id="490"/>
			<location name="" lng="-121.759530" lat="38.543240" tab1="" id="491"/>
			<location name="" lng="-121.759524" lat="38.543349" tab1="" id="492"/>
			<location name="" lng="-121.759225" lat="38.543027" tab1="" id="493"/>
			<location name="" lng="-121.759221" lat="38.542832" tab1="" id="494"/>
			<location name="" lng="-121.759719" lat="38.543100" tab1="" id="495"/>
			<location name="" lng="-121.759968" lat="38.541437" tab1="" id="496"/>
			<location name="" lng="-121.759909" lat="38.541490" tab1="" id="497"/>
			<location name="" lng="-121.759271" lat="38.541453" tab1="" id="498"/>
			<location name="" lng="-121.759327" lat="38.541502" tab1="" id="499"/>
			<location name="" lng="-121.759338" lat="38.542137" tab1="" id="500"/>
			<location name="" lng="-121.759274" lat="38.542184" tab1="" id="501"/>
			<location name="" lng="-121.759918" lat="38.542122" tab1="" id="502"/>
			<location name="" lng="-121.759976" lat="38.542175" tab1="" id="503"/>
			<location name="" lng="-121.749415" lat="38.539560" tab1="" id="504"/>
			<location name="" lng="-121.748802" lat="38.539665" tab1="" id="505"/>
			<location name="" lng="-121.749439" lat="38.539803" tab1="" id="506"/>
			<location name="" lng="-121.748837" lat="38.539913" tab1="" id="507"/>
			<location name="" lng="-121.747999" lat="38.538527" tab1="" id="508"/>
			<location name="" lng="-121.747966" lat="38.538814" tab1="" id="509"/>
			<location name="" lng="-121.748088" lat="38.538778" tab1="" id="510"/>
			<location name="" lng="-121.748374" lat="38.538246" tab1="" id="511"/>
			<location name="" lng="-121.746840" lat="38.537640" tab1="" id="512"/>
			<location name="" lng="-121.746714" lat="38.537504" tab1="" id="513"/>
			<location name="" lng="-121.746900" lat="38.537376" tab1="" id="514"/>
			<location name="" lng="-121.746959" lat="38.537660" tab1="" id="515"/>
			<location name="" lng="-121.746619" lat="38.537672" tab1="" id="516"/>
			<location name="" lng="-121.746796" lat="38.537693" tab1="" id="517"/>
			<location name="" lng="-121.746819" lat="38.538165" tab1="" id="518"/>
			<location name="" lng="-121.746563" lat="38.538087" tab1="" id="519"/>
			<location name="" lng="-121.764281" lat="38.532309" tab1="" id="520"/>
			<location name="" lng="-121.764760" lat="38.532109" tab1="" id="521"/>
			<location name="" lng="-121.763765" lat="38.532092" tab1="" id="522"/>
			<location name="" lng="-121.763499" lat="38.531473" tab1="" id="523"/>
			<location name="" lng="-121.763289" lat="38.531317" tab1="" id="524"/>
			<location name="" lng="-121.763389" lat="38.531156" tab1="" id="525"/>
			<location name="" lng="-121.759979" lat="38.532678" tab1="" id="526"/>
			<location name="" lng="-121.759811" lat="38.532778" tab1="" id="527"/>
			<location name="" lng="-121.759921" lat="38.533690" tab1="" id="528"/>
			<location name="" lng="-121.759638" lat="38.534025" tab1="" id="529"/>
			<location name="" lng="-121.759238" lat="38.537499" tab1="" id="530"/>
			<location name="" lng="-121.760042" lat="38.533888" tab1="" id="531"/>
			<location name="" lng="-121.758709" lat="38.540544" tab1="" id="532"/>
			<location name="" lng="-121.749842" lat="38.534009" tab1="" id="533"/>
			<location name="" lng="-121.763515" lat="38.532082" tab1="" id="534"/>
			<location name="" lng="-121.748167" lat="38.535072" tab1="" id="535"/>
			<location name="" lng="-121.748236" lat="38.535197" tab1="" id="536"/>
			<location name="" lng="-121.753940" lat="38.544721" tab1="" id="537"/>
			<location name="" lng="-121.753987" lat="38.544385" tab1="" id="538"/>
			<location name="" lng="-121.763369" lat="38.532207" tab1="" id="539"/>
			<location name="" lng="-121.749884" lat="38.534251" tab1="" id="540"/>
			<location name="" lng="-121.747258" lat="38.539941" tab1="" id="541"/>
			<location name="" lng="-121.746786" lat="38.540047" tab1="" id="542"/>
			<location name="" lng="-121.758064" lat="38.534039" tab1="" id="543"/>
			<location name="" lng="-121.757917" lat="38.534037" tab1="" id="544"/>
			<location name="" lng="-121.749998" lat="38.538642" tab1="" id="545"/>
			<location name="" lng="-121.747071" lat="38.539296" tab1="" id="546"/>
			<location name="" lng="-121.750847" lat="38.538669" tab1="" id="547"/>
			<location name="" lng="-121.763582" lat="38.530987" tab1="" id="548"/>
			<location name="" lng="-121.755716" lat="38.539324" tab1="" id="549"/>
			<location name="" lng="-121.755639" lat="38.539422" tab1="" id="550"/>
			<location name="" lng="-121.755690" lat="38.539379" tab1="" id="551"/>
			<location name="" lng="-121.755980" lat="38.539581" tab1="" id="552"/>
			<location name="" lng="-121.755925" lat="38.539249" tab1="" id="553"/>
			<location name="" lng="-121.755672" lat="38.539591" tab1="" id="554"/>
			<location name="" lng="-121.755586" lat="38.541739" tab1="" id="555"/>
			<location name="" lng="-121.755906" lat="38.541655" tab1="" id="556"/>
			<location name="" lng="-121.755578" lat="38.541293" tab1="" id="557"/>
			<location name="" lng="-121.755171" lat="38.541626" tab1="" id="558"/>
			<location name="" lng="-121.755055" lat="38.541525" tab1="" id="559"/>
			<location name="" lng="-121.754923" lat="38.541546" tab1="" id="560"/>
			<location name="" lng="-121.754135" lat="38.542202" tab1="" id="561"/>
			<location name="" lng="-121.754604" lat="38.541902" tab1="" id="562"/>
			<location name="" lng="-121.755460" lat="38.541438" tab1="" id="563"/>
			<location name="" lng="-121.755442" lat="38.541372" tab1="" id="564"/>
			<location name="" lng="-121.749863" lat="38.542714" tab1="" id="565"/>
			<location name="" lng="-121.749835" lat="38.542611" tab1="" id="566"/>
			<location name="" lng="-121.749832" lat="38.542528" tab1="" id="567"/>
			<location name="" lng="-121.747194" lat="38.536595" tab1="" id="568"/>
			<location name="" lng="-121.747320" lat="38.536504" tab1="" id="569"/>
			<location name="" lng="-121.748648" lat="38.534340" tab1="" id="570"/>
			<location name="" lng="-121.748677" lat="38.534418" tab1="" id="571"/>
			<location name="" lng="-121.748701" lat="38.534499" tab1="" id="572"/>
			<location name="" lng="-121.748874" lat="38.534708" tab1="" id="573"/>
			<location name="" lng="-121.754288" lat="38.544092" tab1="" id="574"/>
			<location name="" lng="-121.754331" lat="38.544376" tab1="" id="575"/>
			<location name="" lng="-121.754330" lat="38.544577" tab1="" id="576"/>
			<location name="" lng="-121.749286" lat="38.542079" tab1="" id="577"/>
			<location name="" lng="-121.749001" lat="38.542172" tab1="" id="578"/>
			<location name="" lng="-121.748629" lat="38.534283" tab1="" id="579"/>
			<location name="" lng="-121.748904" lat="38.534780" tab1="" id="580"/>
			<location name="" lng="-121.754990" lat="38.534035" tab1="" id="581"/>
			<location name="" lng="-121.766838" lat="38.532844" tab1="" id="582"/>
			<location name="" lng="-121.765868" lat="38.535044" tab1="" id="583"/>
			<location name="" lng="-121.766558" lat="38.535021" tab1="" id="584"/>
			<location name="" lng="-121.763703" lat="38.532648" tab1="" id="585"/>
			<location name="" lng="-121.763940" lat="38.532576" tab1="" id="586"/>
			<location name="" lng="-121.763905" lat="38.532651" tab1="" id="587"/>
			<location name="" lng="-121.763925" lat="38.532749" tab1="" id="588"/>
			<location name="" lng="-121.764134" lat="38.532839" tab1="" id="589"/>
			<location name="" lng="-121.763763" lat="38.532964" tab1="" id="590"/>
			<location name="" lng="-121.763523" lat="38.532959" tab1="" id="591"/>
			<location name="" lng="-121.763247" lat="38.532790" tab1="" id="592"/>
			<location name="" lng="-121.757227" lat="38.536321" tab1="" id="593"/>
			<location name="" lng="-121.757194" lat="38.536191" tab1="" id="594"/>
			<location name="" lng="-121.757426" lat="38.535987" tab1="" id="595"/>
			<location name="" lng="-121.757478" lat="38.536468" tab1="" id="596"/>
			<location name="" lng="-121.758105" lat="38.544041" tab1="" id="597"/>
			<location name="" lng="-121.759317" lat="38.540723" tab1="" id="598"/>
			<location name="" lng="-121.761444" lat="38.542813" tab1="" id="599"/>
			<location name="" lng="-121.761165" lat="38.542769" tab1="" id="600"/>
			<location name="" lng="-121.762874" lat="38.537650" tab1="" id="601"/>
			<location name="" lng="-121.763443" lat="38.537354" tab1="" id="602"/>
			<location name="" lng="-121.763824" lat="38.536557" tab1="" id="603"/>
			<location name="" lng="-121.763515" lat="38.536507" tab1="" id="604"/>
			<location name="" lng="-121.763687" lat="38.536529" tab1="" id="605"/>
			<location name="" lng="-121.763465" lat="38.535889" tab1="" id="606"/>
			<location name="" lng="-121.762105" lat="38.535940" tab1="" id="607"/>
			<location name="" lng="-121.761746" lat="38.537039" tab1="" id="608"/>
			<location name="" lng="-121.751480" lat="38.532906" tab1="" id="609"/>
			<location name="" lng="-121.751340" lat="38.532927" tab1="" id="610"/>
			<location name="" lng="-121.747502" lat="38.534857" tab1="" id="611"/>
			<location name="" lng="-121.747321" lat="38.534689" tab1="" id="612"/>
			<location name="" lng="-121.747377" lat="38.534681" tab1="" id="613"/>
			<location name="" lng="-121.747415" lat="38.534672" tab1="" id="614"/>
			<location name="" lng="-121.757341" lat="38.540616" tab1="" id="615"/>
			<location name="" lng="-121.757349" lat="38.540553" tab1="" id="616"/>
			<location name="" lng="-121.757501" lat="38.540372" tab1="" id="617"/>
			<location name="" lng="-121.749610" lat="38.542234" tab1="" id="618"/>
			<location name="" lng="-121.750365" lat="38.543235" tab1="" id="619"/>
			<location name="" lng="-121.758813" lat="38.531347" tab1="" id="620"/>
			<location name="" lng="-121.762670" lat="38.540253" tab1="" id="621"/>
			<location name="" lng="-121.762184" lat="38.540072" tab1="" id="622"/>
			<location name="" lng="-121.761977" lat="38.535198" tab1="" id="623"/>
			<location name="" lng="-121.761937" lat="38.535259" tab1="" id="624"/>
		</subcategory>
		<subcategory name="Power+Assist+Entry" type="powerentry">
			<location name="" lng="-121.751784" lat="38.543425" tab1="" id="626"/>
			<location name="" lng="-121.751885" lat="38.543667" tab1="" id="627"/>
			<location name="" lng="-121.752140" lat="38.541871" tab1="" id="628"/>
			<location name="" lng="-121.751689" lat="38.541539" tab1="" id="629"/>
			<location name="" lng="-121.749779" lat="38.542385" tab1="" id="630"/>
			<location name="" lng="-121.747213" lat="38.540607" tab1="" id="631"/>
			<location name="" lng="-121.747060" lat="38.540069" tab1="" id="632"/>
			<location name="" lng="-121.747392" lat="38.540054" tab1="" id="633"/>
			<location name="" lng="-121.747962" lat="38.543342" tab1="" id="634"/>
			<location name="" lng="-121.748082" lat="38.542224" tab1="" id="635"/>
			<location name="" lng="-121.747783" lat="38.542222" tab1="" id="636"/>
			<location name="" lng="-121.749174" lat="38.537237" tab1="" id="637"/>
			<location name="" lng="-121.751859" lat="38.537195" tab1="" id="638"/>
			<location name="" lng="-121.751733" lat="38.536879" tab1="" id="639"/>
			<location name="" lng="-121.753517" lat="38.535388" tab1="" id="640"/>
			<location name="" lng="-121.752255" lat="38.535397" tab1="" id="641"/>
			<location name="" lng="-121.753089" lat="38.537540" tab1="" id="642"/>
			<location name="" lng="-121.753317" lat="38.536417" tab1="" id="643"/>
			<location name="" lng="-121.750009" lat="38.536245" tab1="" id="644"/>
			<location name="" lng="-121.754261" lat="38.534685" tab1="" id="645"/>
			<location name="" lng="-121.754498" lat="38.534788" tab1="" id="646"/>
			<location name="" lng="-121.753050" lat="38.541681" tab1="" id="647"/>
			<location name="" lng="-121.752554" lat="38.539876" tab1="" id="648"/>
			<location name="" lng="-121.752537" lat="38.539825" tab1="" id="649"/>
			<location name="" lng="-121.752750" lat="38.534247" tab1="" id="650"/>
			<location name="" lng="-121.759010" lat="38.542711" tab1="" id="651"/>
			<location name="" lng="-121.752661" lat="38.538096" tab1="" id="652"/>
			<location name="" lng="-121.749911" lat="38.542807" tab1="" id="653"/>
			<location name="" lng="-121.758562" lat="38.540509" tab1="" id="654"/>
			<location name="" lng="-121.761238" lat="38.542860" tab1="" id="655"/>
			<location name="" lng="-121.762401" lat="38.543626" tab1="" id="656"/>
			<location name="" lng="-121.748360" lat="38.542045" tab1="" id="657"/>
			<location name="" lng="-121.753729" lat="38.539729" tab1="" id="658"/>
			<location name="" lng="-121.755132" lat="38.538939" tab1="" id="659"/>
			<location name="" lng="-121.751370" lat="38.536826" tab1="" id="660"/>
			<location name="" lng="-121.764427" lat="38.532849" tab1="" id="661"/>
			<location name="" lng="-121.764915" lat="38.532859" tab1="" id="662"/>
			<location name="" lng="-121.765122" lat="38.532873" tab1="" id="663"/>
			<location name="" lng="-121.764961" lat="38.532733" tab1="" id="664"/>
			<location name="" lng="-121.765244" lat="38.532206" tab1="" id="665"/>
			<location name="" lng="-121.766497" lat="38.531848" tab1="" id="666"/>
			<location name="" lng="-121.750829" lat="38.532383" tab1="" id="667"/>
			<location name="" lng="-121.751595" lat="38.532832" tab1="" id="668"/>
			<location name="" lng="-121.751534" lat="38.532688" tab1="" id="669"/>
			<location name="" lng="-121.750697" lat="38.533031" tab1="" id="670"/>
			<location name="" lng="-121.750643" lat="38.532928" tab1="" id="671"/>
			<location name="" lng="-121.746574" lat="38.534745" tab1="" id="672"/>
			<location name="" lng="-121.747531" lat="38.534687" tab1="" id="673"/>
			<location name="" lng="-121.751764" lat="38.534868" tab1="" id="674"/>
			<location name="" lng="-121.751720" lat="38.535189" tab1="" id="675"/>
			<location name="" lng="-121.751449" lat="38.535189" tab1="" id="676"/>
			<location name="" lng="-121.751405" lat="38.534893" tab1="" id="677"/>
			<location name="" lng="-121.751719" lat="38.535576" tab1="" id="678"/>
			<location name="" lng="-121.755680" lat="38.537819" tab1="" id="679"/>
			<location name="" lng="-121.755378" lat="38.537855" tab1="" id="680"/>
			<location name="" lng="-121.755187" lat="38.537657" tab1="" id="681"/>
			<location name="" lng="-121.752537" lat="38.537770" tab1="" id="682"/>
			<location name="" lng="-121.744231" lat="38.540360" tab1="" id="683"/>
			<location name="" lng="-121.747380" lat=" 38.534513" tab1="" id="684"/>
			<location name="" lng="-121.746106" lat="38.535373" tab1="" id="685"/>
			<location name="" lng="-121.750944" lat="38.532033" tab1="" id="686"/>
			<location name="" id="688" lng="-121.749174" lat="38.535970" tab1=""/>
		</subcategory>
	</category></categories>
